[
  {
    "type": "Vendor",
    "properties": {
      "phone_number": "+221771233287", 
      "name": "Shoprite",
      "city":"Dakar"
    },
    "geometry": {
      "type": "Point",
      "coordinates": [
        -17.450265,
        14.706481
      ]
    }
  },
  {
    "type": "Vendor",
    "properties": {
      "phone_number": "+213092664539", 
      "name": "Harvest",
      "city":"Abidjan"
    },
    "geometry": {
      "type": "Point",
      "coordinates": [
        -4.019056,
        5.349569
      ]
    }
  },
  {
    "type": "Vendor",
    "properties": {
      "phone_number": "+2237123836478", 
      "name": "Glody",
      "city":"Niamey"
    },
    "geometry": {
      "type": "Point",
      "coordinates": [
        2.125385,
        13.511596
      ]
    }
  },
  {
    "type": "Vendor",
    "properties": {
      "phone_number": "+225845637455", 
      "name": "Mokiemo",
      "city":"Nairobi"
    },
    "geometry": {
      "type": "Point",
      "coordinates": [
        36.821945,
        -1.292066
      ]
    }
  },
  {
    "type": "Vendor",
    "properties": {
      "phone_number": "+222948124632", 
      "name": "Djibi",
      "city":"Serowe"
    },
    "geometry": {
      "type": "Point",
      "coordinates": [
        26.695259,
        -22.388720
      ]
    }
  },
  {
    "type": "Vendor",
    "properties": {
      "phone_number": "+213092664539", 
      "name": "Souleyman",
      "city":"Abuja"
    },
    "geometry": {
      "type": "Point",
      "coordinates": [
        7.495485,
        9.037003
      ]
    }
  }
]